[
  {
    "name": "Meds For More",
    "address": "Various Collection Centers, Mumbai",
    "city": "Mumbai",
    "zipCode": "400001",
    "phone": "Contact via website/social media",
    "distance": "Varies",
    "accepts": ["Unused/Unexpired medicines", "Medical equipment"],
    "hours": "Mon-Sat 10AM-6PM",
    "rating": 4.8,
    "verified": true,
    "website": "https://medsformore.org/"
  },
  {
    "name": "Jivan Jyot Drug Bank",
    "address": "Tardeo, Mumbai - 400034",
    "city": "Mumbai",
    "zipCode": "400034",
    "phone": "+91 22 2351 2516",
    "distance": "Varies",
    "accepts": ["All unexpired medicines", "Life-saving drugs"],
    "hours": "Mon-Sat 11AM-7PM",
    "rating": 4.9,
    "verified": true
  },
  {
    "name": "Global Health NGO",
    "address": "Sion, Mumbai - 400022",
    "city": "Mumbai",
    "zipCode": "400022",
    "phone": "+91 22 2407 1000",
    "distance": "Varies",
    "accepts": ["Pediatric medicines", "General OTC"],
    "hours": "Mon-Fri 9AM-5PM",
    "rating": 4.5,
    "verified": true
  },
  {
    "name": "Hope Public Charitable Trust",
    "address": "Madambakkam, Chennai - 600126",
    "city": "Chennai",
    "zipCode": "600126",
    "phone": "+91 44 2229 2223",
    "distance": "Varies",
    "accepts": ["Unexpired medicines", "Psychiatric drugs"],
    "hours": "Mon-Sat 9AM-6PM",
    "rating": 4.7,
    "verified": true,
    "website": "https://hopechennai.com/"
  },
  {
    "name": "Christ Faith Home For Children",
    "address": "3/91, Christ Faith Home Street, Chennai - 600014",
    "city": "Chennai",
    "zipCode": "600014",
    "phone": "+91 44 2235 5555",
    "distance": "Varies",
    "accepts": ["General medicines", "Pediatric supplies"],
    "hours": "Daily 10AM-5PM",
    "rating": 4.6,
    "verified": true
  },
  {
    "name": "Rogi Sahayatha Trust",
    "address": "Inside Osmania General Hospital, Hyderabad - 500012",
    "city": "Hyderabad",
    "zipCode": "500012",
    "phone": "+91 40 2460 0110",
    "distance": "Varies",
    "accepts": ["Life-saving drugs", "Unexpired tablets"],
    "hours": "Mon-Sat 10AM-5PM",
    "rating": 4.9,
    "verified": true
  },
  {
    "name": "Helping Hand Foundation",
    "address": "Lakdikapul, Hyderabad - 500004",
    "city": "Hyderabad",
    "zipCode": "500004",
    "phone": "+91 40 6610 6610",
    "distance": "Varies",
    "accepts": ["All unused unexpired medicines"],
    "hours": "Mon-Sat 9AM-7PM",
    "rating": 4.8,
    "verified": true,
    "website": "https://helpinghandf.org/"
  },
  {
    "name": "ManavJyot Public Charitable Trust",
    "address": "Collection points across Kolkata",
    "city": "Kolkata",
    "zipCode": "700001",
    "phone": "+91 33 2234 1234",
    "distance": "Varies",
    "accepts": ["Unopened unexpired medicines"],
    "hours": "Mon-Sat 10AM-6PM",
    "rating": 4.7,
    "verified": true
  },
  {
    "name": "Calcutta Rescue",
    "address": "85, Collin St, Kolkata - 700016",
    "city": "Kolkata",
    "zipCode": "700016",
    "phone": "+91 33 2217 5675",
    "distance": "Varies",
    "accepts": ["Medicines", "Nutritional supplements"],
    "hours": "Mon-Fri 11AM-5PM",
    "rating": 4.9,
    "verified": true,
    "website": "https://calcuttarescue.org/"
  },
  {
    "name": "Pune Doctors' Charitable Trust",
    "address": "Zilla Parishad Compound, Pune - 411001",
    "city": "Pune",
    "zipCode": "411001",
    "phone": "+91 20 2612 1234",
    "distance": "Varies",
    "accepts": ["Unexpired medicines", "Sample drugs"],
    "hours": "Mon-Sat 10AM-6PM",
    "rating": 4.8,
    "verified": true
  },
  {
    "name": "Zoya Charitable Trust",
    "address": "Kondhwa, Pune - 411048",
    "city": "Pune",
    "zipCode": "411048",
    "phone": "+91 99757 58585",
    "distance": "Varies",
    "accepts": ["Diabetes medicines", "Heart ailment drugs"],
    "hours": "Mon-Sat 11AM-8PM",
    "rating": 4.7,
    "verified": true,
    "website": "https://zoyacharitabletrust.org/"
  },
  {
    "name": "Sanjivani Health & Relief Committee",
    "address": "Mobile Van Base, Ahmedabad - 380001",
    "city": "Ahmedabad",
    "zipCode": "380001",
    "phone": "+91 79 2550 5505",
    "distance": "Varies",
    "accepts": ["Unexpired medicines", "First aid supplies"],
    "hours": "Mon-Sat 9AM-5PM",
    "rating": 4.6,
    "verified": true
  },
  {
    "name": "Shaksham Foundation",
    "address": "C.G. Road, Ahmedabad - 380009",
    "city": "Ahmedabad",
    "zipCode": "380009",
    "phone": "+91 79 4000 4000",
    "distance": "Varies",
    "accepts": ["General OTC", "Life-saving drugs"],
    "hours": "Daily 10AM-6PM",
    "rating": 4.8,
    "verified": true
  },
  {
    "name": "Uday Foundation",
    "address": "113-A/1, Adchini, Sri Aurobindo Marg, New Delhi - 110017",
    "city": "Delhi",
    "zipCode": "110017",
    "phone": "+91 11 2656 1333",
    "distance": "Varies",
    "accepts": ["Unopened unexpired medicines", "Medical supplies"],
    "hours": "Daily 9AM-6PM",
    "rating": 4.7,
    "verified": true,
    "website": "https://www.udayfoundation.org/"
  },
  {
    "name": "SevaRoots Foundation Trust",
    "address": "Lajpat Nagar, New Delhi - 110024",
    "city": "Delhi",
    "zipCode": "110024",
    "phone": "Contact via website",
    "distance": "Varies",
    "accepts": ["Surplus unexpired medicine kits"],
    "hours": "Variable",
    "rating": 4.6,
    "verified": true
  },
  {
    "name": "Environmental Synergies in Development (Ensyde)",
    "address": "Whitefield, Bangalore - 560066",
    "city": "Bangalore",
    "zipCode": "560066",
    "phone": "Contact via website",
    "distance": "Varies",
    "accepts": ["Unused medicines", "Expired medicines (for safe disposal)"],
    "hours": "Collection bins available 24/7",
    "rating": 4.8,
    "verified": true
  },
  {
    "name": "Rangadore Hospital",
    "address": "1st Main Rd, Shankarapuram, Bangalore - 560004",
    "city": "Bangalore",
    "zipCode": "560004",
    "phone": "+91 80 2661 1611",
    "distance": "Varies",
    "accepts": ["Unused unexpired medicines"],
    "hours": "24/7 (Drop box)",
    "rating": 4.5,
    "verified": true
  },
  {
    "name": "Medicine Baba",
    "address": "Collection across NCR, New Delhi - 110001",
    "city": "Delhi",
    "zipCode": "110001",
    "phone": "+91 91361 93630",
    "distance": "Varies",
    "accepts": ["Unused medicines", "Even near-expiry"],
    "hours": "Call for home collection",
    "rating": 5.0,
    "verified": true
  }
]
